id,Location,LocationType,Norm_lat,Norm_lon,Pollutants
1,Withywood School,Urban Traffic,0.7855985862111102,0.4927006977688716,BTX NO2
2,Colston Avenue,Urban Traffic,0.7858586475939038,0.49278662792366057,NO2
3,Blackboy Hill,Urban Traffic,0.7859400304967293,0.4927389050889124,NO2
4,Three Lamps,Urban Traffic,0.785801166086281,0.4928379626022064,NO2
5,Bedminster Parade,Urban Traffic,0.7857934002375527,0.49279084883148677,NO2
6,Church Road,Urban Traffic,0.7858797671856945,0.4928917630854223,NO2
7,St. Andrew's Rd,Urban Traffic,0.7861172767752813,0.49250792320773884,NO2
8,Higham Street,Urban Background,0.7858037869973359,0.49283526809205397,NO2
9,B.R.I.,Urban Traffic,0.7858830653542397,0.49279050692166865,NO2
10,Bath Road,Urban Traffic,0.7857806466937765,0.4928906085210712,NO2
11,Whitefriars,Urban Traffic,0.7858752570248838,0.49279391615234847,NO2
12,Galleries,Urban Traffic,0.7858688463713972,0.49280711123760784,NO2
13,Ferndown Close,Urban Background,0.78608055562222,0.49261972105032176,NO2
14,Red Lion Knowle,Urban Traffic,0.785723123179058,0.49287737619497596,NO2
15,Horsefair,Urban Traffic,0.7858825943632956,0.4928131001500684,NO2
16,Third Way,Urban Traffic,0.7861399286611468,0.4925310027401174,NO2
17,Anglesea Place,Urban Traffic,0.7859365602933044,0.492731929825687,NO2
18,Hillcrest,Urban Background,0.785713111437938,0.4928700066580498,NO2
19,Conham Vale,Urban Traffic,0.7858158976264022,0.4929585071685713,NO2
20,Newfoundland Way,Urban Traffic,0.7858899466153446,0.49282396849287086,NO2
21,Gloucester Road,Urban Traffic,0.7859734512910013,0.4928021565663283,NO2
22,Stokes Croft,Urban Traffic,0.7859025507498678,0.4928055745857444,NO2
23,Old Market,Urban Traffic,0.7858667640575641,0.49282363627878095,NO2
24,Easton Primary School,Urban Background,0.7858898812988732,0.49285275696611,BTX NO2
25,Filwood Bus Depot,Urban Background,0.7856685428007948,0.49281307711182043,BTX NO2
26,59 Creswicke Rd,Urban Background,0.7856827960739318,0.49282473096980556,BTX NO2
27,111 Creswicke Rd,Urban Background,0.7856826297787426,0.4928130658201956,BTX NO2
28,RO 243 Creswicke Rd,Urban Background,0.7856684036020406,0.49279925484126286,BTX NO2
29,Fishponds - Gloucester St,Urban Traffic,0.7859614519577753,0.49290342238732615,BTX NO2
30,Old Market,Urban Traffic,0.7858666229700665,0.49282451672657235,BTX NO2
31,Lawrence Weston,Rural Industrial,0.7860962652512553,0.49263981634017057,BTX NO2
32,Holesmouth,Rural Industrial,0.7862450350446395,0.492523000645523,BTX NO2
33,Chitening Wharf,Rural Industrial,0.7863504827654861,0.4925784390962399,BTX NO2
34,Hallen,Rural Industrial,0.7861966298480032,0.4926272129211116,BTX NO2
35,Severn Beach,Rural Industrial,0.7863967270160914,0.4925860716101986,BTX NO2
36,Lower Over Farm,Rural Industrial,0.7863377404632452,0.4927904211670477,BTX NO2
37,Northwick Oaze,Rural Industrial,0.7866537195002795,0.4926918195583248,BTX NO2
38,Littleton Wharf,Rural Industrial,0.7867638556389362,0.4927861078863595,BTX NO2
39,Earthcott Green,Rural Industrial,0.7864004237342447,0.4930626092030645,BTX NO2
40,Prince St Bridge (centre side),Urban Traffic,0.7858281279280289,0.4927869065890761,BTX NO2
41,Prince St Bridge (Bedminster side),Urban Traffic,0.7858236344226461,0.4927871355954578,BTX NO2
42,Hotwells - Pump House,Urban Traffic,0.7858243529047818,0.49272645156035016,BTX NO2
43,Victoria St - A,Urban Traffic,0.7858504390015807,0.4928047510493606,BTX NO2
44,Portwall Lane - A,Urban Traffic,0.7858284521135397,0.4928140064375798,BTX NO2
45,Portwall Lane - B,Urban Traffic,0.785829751231481,0.49281403811450475,BTX NO2
46,Portwall Lane - C,Urban Traffic,0.7858290129653273,0.49281016540415035,BTX NO2
47,Portwall Lane - D,Urban Traffic,0.7858304627396322,0.49281027604590477,BTX NO2
48,Redcliff St - A,Urban Traffic,0.7858308224911263,0.49280631634496747,BTX NO2
49,Redcliffe St - B,Urban Traffic,0.785832869659438,0.4928062232649688,BTX NO2
50,Redcliffe Hill - A,Urban Traffic,0.7858235530334639,0.49280372477870665,BTX NO2
51,Redcliffe Hill - B,Urban Traffic,0.7858171565311627,0.4928034860654818,BTX NO2
52,Guinea St,Urban Traffic,0.7858178657756878,0.492799524298148,BTX NO2
53,Victoria St - B,Urban Traffic,0.7858509494122177,0.49280582714270826,BTX NO2
54,Commercial Rd - A,Urban Traffic,0.785813137212151,0.492791360661769,BTX NO2
55,Commercial Rd - B,Urban Traffic,0.7858127960651082,0.4927971187051371,BTX NO2
56,Clarence Rd - A,Urban Traffic,0.7858093400998246,0.4928060943966688,BTX NO2
57,Clarence Rd - B,Urban Traffic,0.7858080232412971,0.49280926050370216,BTX NO2
58,Clarence Rd - C,Urban Traffic,0.7858096883019996,0.492815884965435,BTX NO2
59,Clarence Rd - D,Urban Traffic,0.7858144336699522,0.4928208511125876,BTX NO2
60,Clarence Rd - E,Urban Traffic,0.78581837648241,0.49282550276973003,BTX NO2
61,Temple Gate - A,Urban Traffic,0.7858237991961273,0.4928232698552926,BTX NO2
62,Temple Gate - B,Urban Traffic,0.785824706682013,0.49282410352296047,BTX NO2
63,Victoria St - C,Urban Traffic,0.7858418725556552,0.4928122816463747,BTX NO2
64,Bath Bridge,Urban Traffic,0.7858154580304231,0.49282839924929245,BTX NO2
65,York Rd - A,Urban Traffic,0.7858122717350623,0.4928244622780137,BTX NO2
66,York Rd - B,Urban Traffic,0.7858048818147932,0.49281479646616533,BTX NO2
67,York Rd - C,Urban Traffic,0.7858047132190434,0.49280796269065685,BTX NO2
68,Temple Way - A,Urban Traffic,0.7858438988155098,0.49282006395171746,BTX NO2
69,Temple Way - B,Urban Traffic,0.785843821676436,0.4928223430659197,BTX NO2
70,Victoria St - D,Urban Traffic,0.7858418374561702,0.4928137609645432,BTX NO2
71,Pipe Lane,Urban Traffic,0.7858335815573005,0.49282240822299245,BTX NO2
72,Redcliffe Way - B,Urban Traffic,0.7858287830774646,0.49281712225060437,BTX NO2
73,Redcliffe Way - C,Urban Traffic,0.7858280749573315,0.4928162473518703,BTX NO2
74,Redcliffe Way - D,Urban Traffic,0.7858268605108236,0.49281469614532447,BTX NO2
75,St Nicholas Rd,Urban Background,0.7859119356202716,0.4928298663758644,BTX NO2
76,Cotham Lawn Rd,Urban Background,0.7859135744336742,0.4927745127824963,BTX NO2
77,The Limes Nursery School,Urban Background,0.7859124901964317,0.49290264002342843,BTX NO2
78,Eastville Park,Urban Background,0.7859772709380923,0.4929070059431025,BTX NO2
79,Novers Lane School,Urban Background,0.785677022504393,0.492782218534601,BTX NO2
80,St Mathias,Urban Background,0.7860200223836296,0.4929765124528326,BTX NO2
81,Farmwell Close,Urban Background,0.7856139081398662,0.492755992445987,BTX NO2
82,Blaise Castle,Urban Background,0.7861429868365568,0.4926868722781829,BTX NO2
83,Petherton Rd,Urban Background,0.7856806365919617,0.4928747227855363,BTX NO2
84,Henleaze Infants School,Urban Background,0.7860231060615314,0.49276323014251355,BTX NO2
85,Summerleaze Office,Urban Background,0.7859719194121609,0.4930104264157111,BTX NO2
86,Avon County School,Urban Background,0.7860916668994677,0.49254741369818433,BTX NO2
87,Southmead Hospital,Urban Background,0.7860961804491173,0.4927967612000513,BTX NO2
88,Stile AcresBroadlands Drive,Urban Background,0.7861230498368611,0.4926227774833058,BTX NO2
89,The Square,Urban Background,0.78572881974479,0.492856882034049,BTX NO2
90,Hannah Moore School,Urban Background,0.7858541279150915,0.49283898806088283,BTX NO2
91,Brangwyn Grove,Urban Background,0.7860440885951873,0.4928735143844974,BTX NO2
92,Redland Court,Urban Background,0.785962488182397,0.49276563132870876,BTX NO2
93,Dundridge Playing Fields,Urban Background,0.7858368979215827,0.4929772126397874,BTX NO2
94,Airballoon Infants School,Urban Background,0.7858808193695249,0.49297300059456006,BTX NO2
95,Trowbridge Rd,Urban Background,0.7861207866937132,0.4927751108729369,BTX NO2
96,Greville Smyth Park,Urban Background,0.7857888804063926,0.49272597142407587,BTX NO2
97,Ashton Vale School,Urban Background,0.7857389482302208,0.49269981477531943,BTX NO2
98,Stockwood Green School,Urban Background,0.785606938707201,0.4929313704141227,BTX NO2
99,Bishops Close,Urban Background,0.7859778925423869,0.49269625234380593,BTX NO2
100,Elmlea Jnr School,Urban Background,0.786028663127295,0.49271666634807515,BTX NO2
101,Teyfant Primary School,Urban Background,0.7855881165035925,0.4928082017968446,BTX NO2
102,Victoria Park,Urban Background,0.785776768921875,0.4928059036908335,BTX NO2
103,Brunel College,Urban Background,0.7859848390818347,0.4928320023766768,BTX NO2
104,Kingshead Lane Park,Urban Background,0.7856628977310383,0.4927164736081745,BTX NO2
105,Broomhill Jnr School,Urban Background,0.7857755372446197,0.49294783123205516,BTX NO2
106,St Annes Jnr School,Urban Background,0.7858196017089243,0.49291603343946877,BTX NO2
107,Council House,Urban Background,0.7858423450219569,0.4927703441334323,BTX NO2
108,Clifton College,Urban Background,0.785902011817442,0.49271968749529194,BTX NO2
109,Victoria Street a,Urban Traffic,0.785854722775596,0.4928035241226147,BTX NO2
110,Victoria Street,Urban Traffic,0.785843167696355,0.4928119135650065,NO2
111,Redcliffe Street south,Urban Traffic,0.7858301195549683,0.49280596109144115,BTX NO2
112,Redcliffe Hill a,Urban Traffic,0.7858235530334639,0.49280372477870665,BTX NO2
113,Redcliff Hill b,Urban Traffic,0.7858152584082169,0.4928034982597867,BTX NO2
114,Commercial Rd b,Urban Traffic,0.7858127960651082,0.4927971187051371,BTX NO2
115,Clarence Road a,Urban Traffic,0.7858090548988296,0.49280753516524134,BTX NO2
116,Clarence Road e,Urban Traffic,0.7858187313136429,0.49282602015644966,BTX NO2
117,Templegate a,Urban Traffic,0.7858237991961273,0.4928232698552926,BTX NO2
118,Templegate b,Urban Traffic,0.785824706682013,0.49282410352296047,BTX NO2
119,Bath Bridge south,Urban Traffic,0.7858154580304231,0.49282839924929245,BTX NO2
120,corner York rd  and  Whitehouse St,Urban Traffic,0.7858041878977048,0.49281036424565794,NO2
121,Corner York Rd  and  Spring St,Urban Traffic,0.7858048818147932,0.49281479646616533,BTX NO2
122,York Road,Urban Traffic,0.7858042382503322,0.4928104038932888,NO2
123,Temple Way a,Urban Traffic,0.7858443431879414,0.49281954143196616,BTX NO2
124,Temple Way b,Urban Traffic,0.7858439123986767,0.4928214230439638,BTX NO2
125,Redcliffe Way east,Urban Traffic,0.7858277044583403,0.49281417110537395,BTX NO2
126,Redcliffe Way west,Urban Traffic,0.7858274359229764,0.4928073373988311,BTX NO2
127,Temple Gate,Urban Traffic,0.7858274536164752,0.4928190494404104,BTX NO2
128,between Redcliffe Way and Temple Quay rndbt,Urban Traffic,0.7858306888084176,0.4928178696018854,BTX NO2
129,Temple Quay rndbt west,Urban Traffic,0.7858344027579813,0.49281960480189035,BTX NO2
130,Temple Quay rndbt east,Urban Traffic,0.7858330792564304,0.4928221315966367,BTX NO2
131,Temple Way near Avon Street east,Urban Traffic,0.7858523722677865,0.4928231681357532,BTX NO2
132,Temple Way near Avon street west,Urban Traffic,0.7858528522328034,0.4928212061939326,BTX NO2
133,St Thomas Street,Urban Traffic,0.7858399961902344,0.4928094954085602,BTX NO2
134,Redcliffe Street north,Urban Traffic,0.7858420349370361,0.49280360591571787,BTX NO2
135,The  Grove,Urban Traffic,0.7858298714509871,0.4927913323499076,BTX NO2
136,Prince Street,Urban Traffic,0.7858348184375128,0.4927865833746091,BTX NO2
137,Bath Bridge north,Urban Traffic,0.7858193985776674,0.49282781467522796,BTX NO2
138,Bedminster Parade near bridge,Urban Traffic,0.7858055295989195,0.4927997636063043,BTX NO2
139,Coronation Road,Urban Traffic,0.7858085136828069,0.49279846534092,BTX NO2
140,Bedminster Bridge east,Urban Traffic,0.7858086697708055,0.49280402023178593,BTX NO2
141,Bedminster Bridge west,Urban Traffic,0.785810695536033,0.4928018088292783,BTX NO2
142,Coronation Road near entry to Asda,Urban Traffic,0.7858072275891007,0.49278988001831886,BTX NO2
143,roundabout end of Wapping Rd  commercial road,Urban Traffic,0.7858111971544798,0.4927872562133077,BTX NO2
144,Anchor Road,Urban Traffic,0.7858426163594039,0.4927821752246916,NO2
145,Anchor Road opp Cathedral School,Urban Traffic,0.7858380477130393,0.4927750895753974,BTX NO2
146,Anchor Road a,Urban Traffic,0.7858361373671834,0.49276906585388985,BTX NO2
147,Anchor Road b,Urban Traffic,0.7858363132575398,0.492766746114728,BTX NO2
148,Anchor Road c,Urban Traffic,0.7858366426898716,0.4927647851362147,BTX NO2
149,Anchor Road near Hotwells rndbt east,Urban Traffic,0.7858364914800875,0.492759829170104,BTX NO2
150,Anchor Road near Hotwells rndbt west,Urban Traffic,0.7858357781816179,0.49275367768141837,BTX NO2
151,Hotwells Road,Urban Traffic,0.7858318490427725,0.4927457487456558,NO2
152,Jacobs Wells Road South,Urban Traffic,0.7858434366393341,0.4927551457833337,NO2
153,Jacobs Wells road opp Clifton hill,Urban Traffic,0.7858586183342714,0.4927498873927622,NO2
154,Stokes Croft  Ashley Road,Urban Traffic,0.7859127450130134,0.49280590866431373,NO2
155,botttom of Arley Hill,Urban Traffic,0.785920924252333,0.49280457622556567,BTX NO2
156,Cromwell Road,Urban Traffic,0.785938527686911,0.4927966239684094,NO2
157,Zetland Road junction,Urban Traffic,0.7859471061763882,0.4927952884096862,BTX NO2
158,Bishop Road,Urban Traffic,0.785994826609066,0.4928066983354393,NO2
159,Dongola Avenue,Urban Traffic,0.786008213132617,0.49281161230283366,BTX NO2
160,Strathmore Road,Urban Traffic,0.7860369472658262,0.4928177487873449,NO2
161,Horfield Common,Urban Traffic,0.7860548364763142,0.49281835453980194,BTX NO2
162,Sports Centre,Urban Traffic,0.7860757377138531,0.49282546313956144,BTX NO2
163,Monks Park Avenue,Urban Traffic,0.7860937162490497,0.49283003026477795,BTX NO2
164,junction Birchwood Road,Urban Traffic,0.7857832616062888,0.4929403918859121,BTX NO2
165,shops,Urban Traffic,0.7857820547203709,0.4929503908777766,BTX NO2
166,Eastwood Crescent,Urban Traffic,0.7857740342143678,0.49295827115285795,BTX NO2
167,opp Whitmore Avenue,Urban Traffic,0.7857671281403931,0.49296238761408673,BTX NO2
168,Raymill,Urban Traffic,0.7857512184108377,0.4929651972277967,BTX NO2
169,Ironmould Lane,Urban Traffic,0.7857027587720082,0.4929813811556519,BTX NO2
170,Bath Road park  and  ride,Urban Traffic,0.7857169135468831,0.49295029382373595,BTX NO2
171,West Town Lane junction,Urban Traffic,0.7857299556504159,0.4929290792253385,NO2
172,top of Brislington Hill,Urban Traffic,0.7857358406698143,0.49292804504965254,NO2
173,Kenneth Road,Urban Traffic,0.7857442981228331,0.4929189634415633,BTX NO2
174,Water Lane,Urban Traffic,0.7857445619139901,0.4929098109556427,BTX NO2
175,opp Kensington Park Road,Urban Traffic,0.785758924734757,0.4929019712848059,BTX NO2
176,opp Kings Road,Urban Traffic,0.7857769194167613,0.49289262967779346,BTX NO2
177,Arnos Court,Urban Traffic,0.7857861069429017,0.49288697795308933,BTX NO2
178,Totterdown Bridge,Urban Traffic,0.7857970782378342,0.49285405595713017,BTX NO2
179,Higham Street (National),Urban Traffic,0.7858042845278411,0.4928350651016463,BTX NO2
180,Ferndown Close (National),Urban Traffic,0.7860804566222602,0.4926198017880497,BTX NO2
181,Hillcrest (National),Urban Traffic,0.7857116543827524,0.4928691367363203,BTX NO2
182,Newfoundland Way (National),Urban Traffic,0.7858909564125683,0.4928250416133729,NO2
183,No. 6 Borewell WW,Urban Industrial,0.7861686380416179,0.49257277471374256,HM
184,Almondsbury School,Urban Background,0.786406099259617,0.4928475080337294,NOX NO2 NO Meteorology
185,AURN Bristol Centre,Urban Background,0.7858733481659943,0.49281763725667305,NOX NO2 NO CO SO2 PM10
186,Hannah Moore School,Urban Background,0.7858541279150915,0.49283898806088283,Hydrocarbons
187,Albright and Wilson,Urban Industrial,0.7862340928308642,0.4925355353864049,DUST
188,Tesco forecourt,Urban Industrial,0.7859672526736342,0.49287778990945397,BTX
189,Stapleton2,Urban Industrial,0.7859783322621733,0.49288720084382565,BTX
190,Eastgate,Urban Industrial,0.7859689767649167,0.49287525952357736,BTX
191,Tesco spot,Urban Industrial,0.7859719981226274,0.4928830001336872,BTX
192,Sainsbury Ashton3,Urban Industrial,0.7857432964370101,0.49272799443774445,BTX
193,Redland Road,Urban Industrial,0.7859435542873741,0.49278007422007086,BTX
194,Arnos Court,Urban Industrial,0.7857957559254768,0.4928877981487611,BTX
195,Stapleton1,Urban Industrial,0.7859830454473868,0.4928890517932364,BTX
196,Castle Cement,Urban Industrial,0.7860542146993102,0.4924441919416486,DUST
197,Blaise Castle House,Urban Background,0.7861423439709575,0.4926874770809577,O3 Meteorology
198,Brislington Depot,Urban Background,0.7857874750831273,0.4928890078979752,NOX NO2 NO
199,Little Stoke Parish Hall,Urban Background,0.7862538980089757,0.49290544577504375,NOX NO2 NO Meteorology
200,Terra UK site,Urban Industrial,0.7863480196041431,0.4925901931963493,NOX NO2 NO Meteorology
201,Rupert Street,Urban Traffic,0.785863508846577,0.49278815541596377,NOX NO2 NO
202,Dundry Hill,Rural Industrial,0.7855380676885634,0.49266182314102924,Meteorology
203,Hallen Village,Urban Background,0.7862100347463398,0.4926422499910501,HM
204,IKEA M32,Urban Traffic,0.7859737974777747,0.4928831090490233,NOX NO2 NO
205,Rhone Poulenc,Urban Industrial,0.7861845079035532,0.49251589469285556,DUST
206,Rhone Poulenc,Urban Industrial,0.7861879609774038,0.4925164287917721,DUST
207,Rhone Poulenc,Urban Industrial,0.7861859176098309,0.49252104778300065,DUST
208,Old Market,Urban Traffic,0.7858667640575641,0.49282363627878095,NOX NO2 NO PM10
209,Port Health Office,Urban Industrial,0.7861133782577799,0.4924910254207827,DUST
210,Parson Street School,Urban Traffic,0.7857370794072914,0.4927639999701058,NOX NO2 NO PM2.5
211,Poplar Farm,Rural Industrial,0.7861824192204038,0.4925940891938454,Heavy Metals
212,Port Health Office,Urban Industrial,0.786112028220662,0.49249091579388926,Lead
213,Royal Portbury Docks quayside,Urban Industrial,0.7860768691104931,0.49245853726291827,DUST
214,Royal Portbury Docks cc,Urban Industrial,0.786073083107823,0.49246348841485077,DUST
215,Royal Portbury Docks road,Urban Industrial,0.7860672291251504,0.49245861291295057,DUST
216,Blaise Castle House,Urban Background,0.7861417958231532,0.492687600939758,Smoke SO2
217,Bristol North Baths,Urban Background,0.7859712425697604,0.4928010909514547,Smoke SO2
218,St. Matthias College,Urban Background,0.786021871292603,0.4929765817768378,Heavy Metals
219,St Matthias College,Urban Background,0.7860200223836296,0.4929765124528326,Smoke SO2
220,The Vicarage Avonmouth,Urban Background,0.7861182827704966,0.4925043138094252,DUST
221,Wessex Water Avonmouth,Urban Industrial,0.7861747464856802,0.4925740105080881,Smoke SO2
222,Wessex Water Avonmouth,Urban Industrial,0.786174743722447,0.4925737703538982,HM
223,Temple Meads Station,Urban Traffic,0.7858271223465554,0.4928208903176912,NOX NO2 NO
224,South Liberty Lane Travellers Site,Urban Background,0.7857471789453797,0.4926895294605769,BTX NO2
225,Parson Street School,Urban Traffic,0.7857384016629554,0.49276626890327396,BTX NO2
226,West Town Road,Urban Traffic,0.7860632177938119,0.4925281420692824,NO2
227,A4 Portway N of P and R,Urban Traffic,0.7860669370004985,0.4925300743856892,NO2
228,A4 Portway S of P and R,Urban Traffic,0.7860526706873794,0.49253602372005106,NO2
229,A37 N of Airport Rd. Junction,Urban Traffic,0.7857146399097057,0.49287830781196973,NO2
230,A37 S of Airport Rd.Junction,Urban Traffic,0.7857016556598918,0.4928787078886404,NO2
231,A4174 East of Airport Rd Junction,Urban Traffic,0.7857063411742691,0.4928724460783816,NO2
232,A4174 West of Airport Rd. Junction,Urban Traffic,0.7857135819145815,0.4928825895537452,NO2
233,Parson Street School,Urban Traffic,0.7857331680228674,0.49276254743758585,NO2
234,Parson St. A38 East,Urban Traffic,0.7857332160880651,0.49275755219859685,NO2
235,Parson St. A38 West,Urban Traffic,0.7857315006192134,0.49274633507425886,NO2
236,Parson St. Bedminster Road,Urban Traffic,0.7857398951932457,0.4927657794772428,NO2
237,Parson Street Bedminster Down Road,Urban Traffic,0.7857278170561905,0.4927428033346973,NO2
238,Parson Street Chip Shop,Urban Traffic,0.785738218107472,0.4927581982379425,NO2
239,Kingsweston Lane Central,Urban Traffic,0.786129682208632,0.4925777451557788,NO2
240,Kingsweston Lane 100m N,Urban Traffic,0.7861342072846264,0.4925759508189686,NO2
241,Kingsweston Lane 200m N,Urban Traffic,0.7861408393749556,0.4925749413201712,NO2
242,Kingsweston Lane 100m S,Urban Traffic,0.7861256653142115,0.4925802960799409,NO2
243,Kingsweston Lane 200m S,Urban Traffic,0.7861218028042507,0.4925832459861441,NO2
244,Lawrence Weston Road Central,Urban Traffic,0.7861592126038259,0.49260918881703714,NO2
245,Lawrence Weston Road 100m N,Urban Traffic,0.7861621665333366,0.49260536479205164,NO2
246,Lawrence Weston Road 200m N,Urban Traffic,0.7861666210968111,0.4926017299023988,NO2
247,Lawrence Weston Road 100m S,Urban Traffic,0.786155069283195,0.4926138618823906,NO2
248,Lawrence Weston Road 200m S,Urban Traffic,0.7861517124074717,0.49261740839277723,NO2
249,Merchants Road Hotwells,Urban Traffic,0.7858289487814545,0.4927264605212204,NO2
250,Joy Hill Hotwells,Urban Traffic,0.7858341170855447,0.4927191901006973,NO2
251,Church Hotwells,Urban Traffic,0.7858354448883978,0.49272665653676295,NO2
252,Almshouses Hotwells,Urban Traffic,0.7858329761849702,0.49271524029735353,NO2
253,Stapleton Road North,Urban Traffic,0.7859860702814253,0.49288671331727957,NO2
254,Stapleton Road Middle,Urban Traffic,0.7859820213009457,0.49288641821899776,NO2
255,Stapleton Road South,Urban Traffic,0.78597727493118,0.49288632740290644,NO2
256,Stapleton Road Heath Street,Urban Traffic,0.7859619261106605,0.492884941878992,NO2
257,Stapleton Road Argyll Street,Urban Traffic,0.7859525948687103,0.4928807599259597,NO2
258,Gatton Road,Urban Traffic,0.7859323620848044,0.4928547307489849,NO2
259,Baptist Mills School,Urban Traffic,0.785929338143323,0.49285710910491676,NO2
260,Elton Street Wellington Road,Urban Traffic,0.7858905850967253,0.49283292073553847,NO2
261,Cabot Primary School,Urban Traffic,0.7859044899705017,0.49283467197770015,NO2
262,Pritchard Street,Urban Traffic,0.7858878438840258,0.4928185041960359,NO2
263,Pilning Fire Station,Rural Industrial,0.7864268527677996,0.49267123307658617,NOX NO2 NO Meteorology
264,South Liberty Lane RWS,Urban Traffic,0.7857176437720568,0.49270215754586844,NO2
265,Wells Road,Urban Traffic,0.7857103456388618,0.49287849423925084,NOX NO2 NO
266,Trailer Portway P&R,Urban Traffic,0.7860555107713818,0.4925311611835968,NOX NO2 NO
267,Old Beaufort Club 1,Urban Traffic,0.7858502207744509,0.49278816201703635,NO2
268,Old Beaufort Club 2,Urban Traffic,0.785850020558509,0.492788123344232,NO2
269,Old Beaufort Club 3,Urban Traffic,0.7858499206542995,0.4927881239949835,NO2
270,B and W 3rd floor,Urban Traffic,0.7858471700278912,0.4927878221001303,NO2
271,B and W Top Floor,Urban Traffic,0.7858463122801788,0.49278698818628414,NO2
272,B and W Broad Quay,Urban Traffic,0.7858467598099849,0.4927867853872245,NO2
273,B and W Broad Quay2,Urban Traffic,0.7858474091873895,0.4927867811536401,NO2
274,Marsh St Derelict,Urban Traffic,0.7858481698852434,0.4927878955392987,NO2
275,Marsh St Derelict Garage,Urban Traffic,0.7858490698383167,0.4927879696299041,NO2
276,Rupert St Green Box,Urban Traffic,0.7858636091582484,0.4927881947418013,NO2
277,Project House GF,Urban Traffic,0.7858509769824137,0.4927888367019988,NO2
278,Project House 1F,Urban Traffic,0.7858509270303099,0.492788837027222,NO2
279,Project House 2F,Urban Traffic,0.7858508271261018,0.4927888376776676,NO2
280,Project House 3F,Urban Traffic,0.7858507771739975,0.4927888380028902,NO2
281,William Street,Urban Traffic,0.7858025222121101,0.49280369998503565,NO2
282,Whitehouse Street,Urban Traffic,0.7858026040165037,0.4928068570569378,NO2
283,Avonmouth Primary School,Urban Background,0.7860916668994677,0.49254741369818433,Lead
284,Bear Pit Railing,Urban Traffic,0.785886091884683,0.4928032418301921,NO2
285,Bear Pit Toilet Block,Urban Traffic,0.7858852535968356,0.4928043267905051,NO2
286,Traffic Light Avon House,Urban Traffic,0.7858882056149532,0.49280478752627843,NO2
287,Shop Parade,Urban Traffic,0.7858832381505778,0.49280262055199714,NO2
288,Bond St. Lamp post,Urban Traffic,0.7858853789034027,0.4928068449139192,NO2
289,Castle Court forecourt sainsburys,Urban Industrial,0.7858004136275353,0.4928890487215393,BTX
290,Lamppost   16 Ashley Road St. Pauls,Urban Traffic,0.7859243009843546,0.49283758576154346,NO2
291,Facade   383 Church Road Redfield,Urban Traffic,0.785890803929255,0.49293403893222254,NO2
292,Facade St. Georges Library   Church Road St. George,Urban Traffic,0.7858910873620999,0.4929322779617457,NO2
293,Facade Ye Olde Flower Shop 218 Church Road St. George,Urban Traffic,0.785886003893667,0.49291743456982745,NO2
294,Facade Haart Estate Agents 755 Fishponds Road Fishponds,Urban Traffic,0.7860039251830105,0.49297516545923137,NO2
295,Lamppost   717 Fishponds Road Fishponds,Urban Traffic,0.7859991958400526,0.49297143283282974,NO2
296,Facade Cafe Culture 597 Fishponds Road Fishponds,Urban Traffic,0.7859843297280692,0.4929516803737331,NO2
297,Facade   784 Muller Road Fishponds,Urban Traffic,0.7859675713519805,0.492895506034051,NO2
298,Lamppost     Russell Town Avenue Redfield,Urban Traffic,0.785877618742238,0.49288126075371136,NO2
299,Lamppost     Sarah Street Redfield,Urban Traffic,0.7858775390156019,0.4928677871258529,NO2
300,Lamppost     Cottrell Road \ Muller Road Horfield,Urban Traffic,0.7859737547837145,0.4928838692472052,NO2
301,Lamppost     Glenfrome Road \ Muller Road Horfield,Urban Traffic,0.7859752262644293,0.49287062124491504,NO2
302,Lamppost     Muller Road Horfield,Urban Traffic,0.7860004077101517,0.4928455439665514,NO2
303,Lamppost     Muller Road \ Downend Road Horfield,Urban Traffic,0.7860277201281656,0.4928342501932108,NO2
304,Lamppost     Muller Road \ Filton Avenue Horfield,Urban Traffic,0.7860463335566598,0.4928272908059727,NO2
305,Give Way sign  Chesterfield Rd \ Ashley Down Road St. Andrews,Urban Traffic,0.7859612708065118,0.4928279126946894,NO2
306,Lamppost     Ashley Hill St. Pauls,Urban Traffic,0.7859393041549622,0.492834251459674,NO2
307,Lamppost     Hendre Road \ Winterstoke Road Ashton,Urban Traffic,0.7857507373659116,0.49272782486351546,NO2
308,Lamppost     Whiteladies Road \ Cotham Hill Clifton,Urban Traffic,0.7859108356778441,0.49275121786541154,NO2
309,Lamppost     M5 Lawrence Weston Road 25m from carriageway Avonmouth,Urban Traffic,0.7861597502831299,0.4926081442143958,NO2
310,Lamppost     M5 Lawrence Weston Road 50m from carriageway Avonmouth,Urban Traffic,0.7861604854870461,0.492606898036269,NO2
311,Monitor     A37 Wells Road Knowle,Urban Traffic,0.7857103456388618,0.49287849423925084,NO2
312,Monitor     Rupert Street City Centre,Urban Traffic,0.7858636087507452,0.49278815476516563,NO2
313,Monitor     Temple Way Temple Meads,Urban Traffic,0.7858270747921459,0.4928211304600943,NO2
314,Monitor     Bath Road Brislington,Urban Background,0.7857875257969388,0.49288908752218785,NO2
315,Monitor     Trailer Portway Park and Ride,Urban Traffic,0.7860555107713818,0.4925311611835968,NO2
316,Monitor     Castlemead City Centre,Urban Background,0.7858733977178228,0.4928175969592357,NO2
317,Facade   742 Muller Road Fishponds,Urban Traffic,0.7859703687963144,0.49289024945621585,NO2
318,Facade   258 Fishponds Road Fishponds,Urban Traffic,0.7859643375319976,0.49290748435590076,NO2
319,Lamp post Roundabout poplar way,Urban Background,0.786215671986804,0.4925665817885535,NO2
320,Lamp post bridge poplar way east,Urban Background,0.7862132403685136,0.4925766487268039,NO2
321,Lamp post industrial units entrance,Urban Background,0.7862258727800625,0.4925761550633195,NO2
322,Lamp post bridge poplar way west,Urban Background,0.786229919644774,0.49255890882066866,NO2
323,Days Road Kingsland Road,Urban Background,0.7858489157274009,0.49284741598132814,NO2
324,Days Road Chancery Street,Urban Background,0.785862477900754,0.49286524156813594,NO2
325,Days Road Peters Terrace,Urban Background,0.785867421201596,0.4928650110675043,NO2
326,Days Road Sarah Street,Urban Background,0.7858733786867843,0.4928663335215585,NO2
327,Days Road Oxford Street,Urban Background,0.785845040709479,0.49284452200029516,NO2
328,Hartcliffe Hilltop Farm,Urban Background,0.7856929145903373,0.49277308348273147,NO2
329,Hartcliffe Novers Hill,Urban Background,0.7856969635699012,0.4927782109229849,NO2
330,Hartcliffe Crantock Avenue,Urban Background,0.7856903289763175,0.4927597556683946,NO2
331,Hartcliffe Novers Park Drive 1,Urban Background,0.7857039830909517,0.49278076181330654,NO2
332,Hartcliffe Novers Park Drive 2,Urban Background,0.7857059268283149,0.49278522425031124,NO2
333,Hengrove Whitchurch Lane,Urban Background,0.7856261361505719,0.49278886462278304,NO2
334,Hengrove Hawkfield Road,Urban Background,0.7856212734012469,0.49279209174472577,NO2
335,Hengrove Rowacres,Urban Background,0.7856374937696561,0.49284055851184727,NO2
336,Hengrove Inns Court Drive,Urban Background,0.7856500300031832,0.4928002137579836,NO2
337,Hartcliffe A4174,Urban Background,0.7856960381075974,0.49276595055972844,NO2
338,Hengrove Hengrove Leisure Park,Urban Background,0.7856415674138549,0.49282307770221895,NO2
339,Hengrove Penrose,Urban Background,0.7856561749571883,0.4928352877375554,NO2
340,153 Muller Road Façade,Urban Traffic,0.7860230858687112,0.492835399697232,NO2
341,M4 J18 Climbing Lane Near Springs Farm,Urban Traffic,0.7861167148840009,0.49342556670110543,NO2
342,M4 j19 - 20 widening North East Green Acres Farm,Urban Traffic,0.7862592055694072,0.4929770098616054,NO2
343,M4 j19 - 20 widening SW1 Palmers Leaze,Urban Traffic,0.7862626355353459,0.4929696221141076,NO2
344,M4 j19 - 20 widening SW1 Ormond Close,Urban Traffic,0.7863438896256842,0.4929293333846242,NO2
345,M5 J16 - 17 N Chillington Court,Urban Traffic,0.7863317081117019,0.4928163753756396,NO2
346,M5 J16 - 17 S Falcon Close,Urban Traffic,0.7863024404315264,0.4928019866004541,NO2
347,M5 J17 - 18 Hallen Hill - Hollywood Lane S of M5,Urban Traffic,0.7862601423235096,0.4927399968902985,NO2
348,M5 J19 - 20 Naish Hill - Station Road S of M5,Urban Traffic,0.7859778540638415,0.4924294359473584,NO2
349,M5 J19 - 20 Tickenham Hill Housing Adjacent to J20,Urban Traffic,0.7857240550185933,0.49210579233576346,NO2
350,M5 J19 - 20 Tickenham Hill N of J20,Urban Traffic,0.7857761747868248,0.4921420415177961,NO2
351,M5 J19 - 20 Tickenham Hill EXTRA GRADIENT,Urban Traffic,0.785809287127482,0.4921879083604349,NO2
352,M5 J17 - 18 Hallen Hill EXTRA GRADIENT,Urban Traffic,0.7862112807629539,0.4926646608494118,NO2
353,5102 façade,Urban Traffic,0.7858889001033649,0.49280430323797847,NO2
354,St. Matthias House façade,Urban Traffic,0.7858757946181772,0.4928224993445015,NO2
355,Unite façade,Urban Traffic,0.7858716454029379,0.49282220591462156,NO2
356,Broad Weir post development,Urban Traffic,0.7858718891451792,0.4928166070761403,NO2
357,River Street facade 1,Urban Traffic,0.7858805938301807,0.49282786634133413,NO2
358,River Street facade 2,Urban Traffic,0.7858843161052445,0.492830441559862,NO2
359,Wellington Road post development,Urban Traffic,0.7858850990562085,0.4928287973042569,NO2
360,Great George Street lamppost,Urban Traffic,0.7858841848939572,0.49283232156744466,NO2
361,Lamb Street façade,Urban Traffic,0.7858772066673442,0.49283388502312175,NO2
362,Avon Street Temple Way junction post development,Urban Traffic,0.7858507702097121,0.4928228185356375,NO2
363,123 Newfoundland Street façade,Urban Traffic,0.7858972112739577,0.4928311194243984,NO2
364,St. Paul Street,Urban Traffic,0.7858881751625881,0.4928216607630196,NO2
365,Newfoundland Road Police Station,Urban Traffic,0.7858926251264399,0.49282707016222205,NOX NO2 NO
366,Hallen,Rural Industrial,0.7861942393270128,0.49261449964980947,Lead
367,A4174 UWE,Urban Traffic,0.7861403140407626,0.4929331517146315,NOX NO2 NO
368,Easton Business Park,Urban Background,0.7859036436226243,0.49286554633765634,NOX NO2 NO
369,Dundry,Urban Background,0.7855380676885634,0.49266182314102924,NOX NO2 NO
370,Orange Street Façade,Urban Traffic,0.7858919450988809,0.49282399573753527,NO2
371,No. 6 Borewell,Urban Industrial,0.7861675596145937,0.4925702208957458,SO2
372,Wessex Water,Urban Industrial,0.7861686677054018,0.49257101325831926,PM
373,No. 6 Borewell,Urban Industrial,0.786168665860403,0.4925708531595789,MET
374,Anstee and Ware,Urban Industrial,0.7861498391046499,0.4925073536973027,HM
375,Atwood Drive,Urban Background,0.7861507671553443,0.492626661155758,HM
376,Sevalco Roadside,Urban Background,0.7862892720138824,0.4925768875286942,SO2
377,Start of Cutting Northbound carriageway Hallen Large Lamppost,Urban Traffic,0.7862059946570177,0.49265637089751096,NO2
378,Property Boundary Oakhill Lane M5 South carriageway rear garden,Urban Traffic,0.7861981532578773,0.49265194246308813,NO2
379,Station Road facing Mway closest property to carriageway,Urban Traffic,0.7859765643224108,0.4924301661340609,NO2
380,Station road two doors down from HA-NEW-3,Urban Traffic,0.7859743784687276,0.49243114339745353,NO2
381,Junction of priory road with station road Lamppost,Urban Traffic,0.7859769308060253,0.49243152311609956,NO2
382,Cole Acre North of M5 over footbridge Lamppost,Urban Traffic,0.7859835400818268,0.4924247110312811,NO2
383,Substation Post Nearest M5 Station Road,Urban Traffic,0.7859783634625219,0.49243023184197915,NO2
384,Sevalco North (on site),Urban Industrial,0.786301733205829,0.4925919736548718,SO2
385,Shiner's Garage,Urban Traffic,0.7858766204736863,0.49288134683622986,NOX NO2 NO
386,Avonmouth Rd No 28 on facia,Urban Traffic,0.7860888753605703,0.4925436332323022,NO2
387,facade avonmouth road underpass - house to SE,Urban Traffic,0.7860870702086604,0.4925430465804657,NO2
388,Avonmouth Rd No 31 on facia,Urban Traffic,0.7860900810034811,0.49253994283754265,NO2
389,facade house on portway M5 underpass,Urban Traffic,0.7860735942259796,0.49253122435709557,NO2
390,facade west town lane M5 underpass,Urban Traffic,0.7860681489320812,0.49253118551526176,NO2
391,facade ashton road - house closest UP,Urban Traffic,0.7857829318451965,0.49271146377025776,NO2
392,Bath Rd No 23 lamppost 48 (opp Book Barn),Urban Traffic,0.7857925560614476,0.49286159827900555,NO2
393,Lamp post 48 230 Bath Road,Urban Traffic,0.7857927117511031,0.49286219683883187,NO2
394,shiners garage triplicate QAQC tubes contin,Urban Traffic,0.7858765785656991,0.49288218672317236,NO2
395,Whitehall Rd/Easton Rd lamppost 4TZ,Urban Traffic,0.7858961710153002,0.4928832661228859,NO2
396,Whitehall Rd lamppost 17 nr juction with Chalks Rd,Urban Traffic,0.7858995172974387,0.49290423812949596,NO2
397,lamppost sussex place,Urban Traffic,0.7859270151475433,0.49283420947475537,NO2
398,Cotham Brow/Cheltenham Rd existing site junction,Urban Traffic,0.7859367197418996,0.4927956759173724,NO2
399,facade cotham brow arches elysee guest house,Urban Traffic,0.785940917196504,0.492795808585304,NO2
400,facade cotham girls school cheltenham rd,Urban Traffic,0.785931934070328,0.4928015857289914,NO2
401,facade 21 bath buildings,Urban Traffic,0.7859236386015324,0.4928062382584216,NO2
402,facade cromwell road west,Urban Traffic,0.7859408586090868,0.49279988819880666,NO2
403,Wells Rd bus lane sign just below junction with Knowle Rd,Urban Traffic,0.785784138234,0.49284366546094094,NO2
404,facade junction brecknock road with a37,Urban Traffic,0.7857758692483412,0.4928511114002045,NO2
405,facade junction hengrove road with a37,Urban Traffic,0.7857556700462889,0.49286462624753147,NO2
406,Wells Rd - Knowle shopping centre lamppost 41 (outside Miss Millies),Urban Traffic,0.7857334873026184,0.4928746347057745,NO2
407,St John's Lane No 26 lamppost 15 (just past roundabout),Urban Traffic,0.7857792318239211,0.49282738992374586,NO2
408,Bedminster Down Rd lamppost between Ashton Motors & Plough PH,Urban Traffic,0.7857399497462394,0.49275179312339706,NO2
409,Parson St lamppost outside Bristol Scuba,Urban Traffic,0.7857421870709219,0.4927555744265431,NO2
410,North St/Dean Lane on roundabout sign,Urban Traffic,0.7857861251114051,0.4927730704727226,NO2
411,North St/Langton Park T junction,Urban Traffic,0.7857842321689057,0.492768726475639,NO2
412,facade BRI children's,Urban Traffic,0.7858773775827902,0.49278630587085587,NO2
413,facade BRI main building,Urban Traffic,0.7858833061603979,0.4927896257323663,NO2
414,Ashley Rd P sign outside International Market (nr Dalrymple Rd),Urban Traffic,0.7859164215925599,0.49281384263287425,NO2
415,City Rd/Ashley Rd lamppost No 16,Urban Traffic,0.7859160516452318,0.49282180267262404,NO2
416,Fishponds Rd lamppost 37 outside PO (just before Oakdene Ave),Urban Traffic,0.7859641100861934,0.49292052398373015,NO2
417,Fishponds Rd/Elmgrove Rd lamppost 53 (outside video centre),Urban Traffic,0.7859775507243427,0.49294240111650256,NO2
418,facade villiers road stapleton road junction,Urban Traffic,0.7859136353248835,0.4928604859803867,NO2
419,Gaol Ferry Bridge,Urban Traffic,0.7858120149438368,0.49277929668606946,NO2
420,Cannon's Road,Urban Traffic,0.7858300477724647,0.4927743823927876,NO2
421,16 Lower Ashley Road,Urban Traffic,0.7859242974310702,0.49283722588038203,BTX
422,Bristol Scuba,Urban Traffic,0.7857431340341418,0.49275536832072214,BTX
423,Whitehall Rd/Easton Rd lamppost 4TZ,Urban Traffic,0.7858963243099553,0.49288362505062666,BTX
424,Old Market,Urban Traffic,0.7858666229700665,0.49282451672657235,BTX
425,Shiners Garage,Urban Traffic,0.7858766757883978,0.4928819062508957,NO2
426,Almondsbury School,Rural Industrial,0.786406099259617,0.4928475080337294,NO2
427,A37 Junction w/ Airport Road,Urban Traffic,0.7857103456388618,0.49287849423925084,NO2
428,Parson Street School,Urban Traffic,0.7857370794072914,0.4927639999701058,NO2
429,Littlestoke Parish Hall,Urban Background,0.7862538980089757,0.49290544577504375,NO2
430,Avon Probation Service,Urban Traffic,0.7858926251264399,0.49282707016222205,NO2
431,Former Shell Tank Farm,Rural Industrial,0.7863091521400277,0.49256376491129383,MET
432,CREATE Roof,Urban Background,0.785817841089217,0.4927153432210549,RAIN RH TEMP SOLAR
433,13 Passage Road,Urban Traffic,0.7860853493804513,0.49272984647140106,NO2
434,CH Ramp North,Urban Traffic,0.7859406906129384,0.4927736142440499,NO2
435,Council House Ramp South,Urban Traffic,0.7858441155672633,0.4927724912134852,NO2
436,Bath Road,Urban Traffic,0.7857918646124353,0.49285728598967404,NOX NO2 NO
437,Economy Cars,Urban Traffic,0.7857918646124353,0.49285728598967404,NO2
438,Eastgate Market,Urban Traffic,0.7859641002318294,0.49286169121763795,NO2
439,Industrial Museum,Urban Industrial,0.7858193695374426,0.49278040797370004,SO2
440,Hallen Village,Urban Traffic,0.7862091347758754,0.49264217633714746,Lead
441,AURN St Pauls,Urban Background,0.7859046010391345,0.4928207161844979,NOX NO2 NO PM2.5 PM10 O3
442,Exclusively Yours LAR,Urban Traffic,0.7859246820351508,0.49283570385445946,BTX
443,Teoh's LAR,Urban Traffic,0.7859238219797665,0.4928396682265341,BTX
444,St. Pauls Day Nursery,Urban Background,0.7859046006400187,0.492820676201112,NO2
445,Newfoundland Way Police Station,Urban Traffic,0.7858925248245784,0.49282703081639045,NO2
446,Holesmouth New,Urban Traffic,0.7862313180617646,0.4925247063070734,NO2
447,62 Callington Road,Urban Traffic,0.7857289559456396,0.49291298226240254,NO2
448,Cheltenham Road \ Station Road,Urban Traffic,0.7859385414629022,0.4927979836104862,NO2
449,Cheltenham Road \ Station Road,Urban Traffic,0.7859385414629022,0.4927979836104862,NOX NO2 NO
450,Millpond School Fence,Urban Traffic,0.7859289803015184,0.492856271550774,NO2
451,Millpond School play area,Urban Traffic,0.7859277830326862,0.4928564389860683,NO2
452,Fishponds Road,Urban Traffic,0.7859891302544876,0.4929576918616923,NOX NO2 NO
453,Fishponds Road,Urban Traffic,0.7859892305212848,0.49295773127249565,NO2
454,North Street School fence,Urban Traffic,0.7857932865529418,0.49273641328855505,NO2
455,Savanna coffee drainpipe,Urban Traffic,0.7857887851822798,0.4927406399368023,NO2
456,Strada Exeter Road,Urban Traffic,0.7857845823569705,0.492744744379523,NO2
457,façade of North Street near Myrtle Street,Urban Traffic,0.7857792011208081,0.4927556106541427,NO2
458,Lamppost corner park avenue,Urban Traffic,0.7857642351762291,0.4928212506880679,NO2
459,Victoria Park Primary,Urban Traffic,0.7857582848104986,0.4928106581563815,NO2
460,property façade nr. Paultow Road,Urban Traffic,0.7857581954655083,0.4928017866966192,NO2
461,Jamiesons Autos,Urban Traffic,0.7857722187429347,0.49277112284701025,NO2
462,B&G Snax West St,Urban Traffic,0.7857641772498223,0.4927663397073062,NO2
463,Martial Arts West Street,Urban Traffic,0.7857568877176555,0.49276183165670084,NO2
464,18 Morton Street,Urban Traffic,0.7858742781804113,0.4928767232742755,NO2
465,Elmgrove Ave,Urban Traffic,0.7859064089204117,0.4928777651370292,NO2
466,rear 32 st marks grove,Urban Traffic,0.7859306172870774,0.49287053785723334,NO2
467,T shirt Shop W. Town Lane,Urban Traffic,0.7857319235944474,0.49292583084263064,NO2
468,cycle sign lamppost,Urban Traffic,0.7857316088991485,0.49291888001983547,NO2
469,Halston Drive,Urban Traffic,0.7859070383364248,0.4928296975414266,NO2
470,CREATE Centre Roof,Urban Background,0.785817841089217,0.4927153432210549,O3
471,Avonmouth Road - Lampost (20) Opposite Number Hse No 45,Urban Traffic,0.7860931538849156,0.4925378789437167,NO2
472,Avonmouth Road - Lampost (19) Opposite Hse No 37,Urban Traffic,0.7860919211206787,0.492539248733849,NO2
473,Avonmouth Road - School Sign Opposite Hse No 16,Urban Traffic,0.7860871897450582,0.4925447262877137,NO2
474,Avonmouth Road - Telegraph Pole Opposite Hse No 4,Urban Traffic,0.7860853575467931,0.49254610052620623,NO2
475,Barracks's Lane - Telegraph Pole No 6. End of Lane Left Hand Side,Urban Traffic,0.7860982054030737,0.49255124624942936,NO2
476,Junction 3 Millpond Street,Urban Traffic,0.7859250301432587,0.4928507776606715,NO2
477,Junction 3 Easton Way,Urban Traffic,0.7859232169935381,0.4928492694275493,NO2
478,Avonmouth Road Outside No 12,Urban Traffic,0.7860866968056089,0.4925452901901677,NO2
479,Avon School Barrack's Lane,Urban Traffic,0.7860887675679075,0.492547235364425,NO2
480,Avonmouth Road Outside No 76,Urban Traffic,0.7860815432689574,0.49254885006148574,NO2
481,On 1 way sign at bottom of Wellington Hill,Urban Traffic,0.7860395985998962,0.49281813190699975,NO2
482,No 67 Filton Avenue on wall facing Muller Rd,Urban Traffic,0.786046234451695,0.4928273714533275,NO2
483,Muller Road - Adjacent to Darnley Avenue,Urban Traffic,0.7860507824840643,0.4928225814381642,NO2
484,On green fence surrounding Western Power substation (?) adjacent to No.1 Dorian Road,Urban Traffic,0.7860751760185763,0.4928142230863247,NO2
485,385 Church Road Redfield,Urban Traffic,0.7858904953495481,0.492933081162277,NO2
486,20 Ashley Road,Urban Traffic,0.7859149029582133,0.49281185297346114,NO2
487,Hungerford Road,Urban Traffic,0.7857026702012055,0.49293335763415436,NO2
488,Temple Way Nox site,Urban Traffic,0.7858774905953411,0.4928222486598233,NO2
489,Temple Way,Urban Traffic,0.7858774905953411,0.4928222486598233,NOX NO2 NO PM10
490,Colston Avenue,Urban Traffic,0.7858625987027753,0.4927870819087056,NOX NO2 NO
491,Co-located Colston Ave,Urban Traffic,0.7858625987027753,0.4927870819087056,NO2
492,Sea mills pharmacy no stopping sign,Urban Background,0.7860266769599596,0.4926394699058639,NO2
493,Avonmouth primary,Urban Background,0.7860842972864622,0.4925281023855731,NO2
494,Henbury school,Urban Traffic,0.7861622905958627,0.4926935434545985,NO2
495,Woodstock school,Urban Background,0.7861475206397835,0.49269504602515896,NO2
496,Blaise school,Urban Traffic,0.7861528182370504,0.4927092987252017,NO2
497,Orchard school,Urban Traffic,0.7861054060967345,0.4928351581027117,NO2
498,Filton avenue primary,Urban Traffic,0.7860576206565868,0.4928422227827394,NO2
499,Ashley down primary,Urban Traffic,0.7860202623867767,0.49282269608719403,NO2
500,Sefton park,Urban Traffic,0.7859679800095942,0.49282946978132036,NO2
501,Colston girls,Urban Traffic,0.7859297910532314,0.49280207950534893,NO2
502,Cabot primary,Urban Background,0.785904225535235,0.4928281559552789,NO2
503,St. Barnabas,Urban Background,0.785929564286279,0.4928293145144064,NO2
504,St. Werburghs park nursery,Urban Traffic,0.7859522383600949,0.4928542063161907,NO2
505,Fairfield high school,Urban Background,0.7859754956016052,0.49285718040072085,NO2
506,Glenfrome primary,Urban Background,0.7859908777226481,0.4928775239440135,NO2
507,Fishponds c of e,Urban Traffic,0.7859957467576995,0.4929601730515013,NO2
508,Briarwood school,Urban Traffic,0.7859876664981441,0.49299481845693005,NO2
509,St. Joseph's RC primary,Urban Traffic,0.785964068981448,0.4929814752435656,NO2
510,Chester park infants,Urban Traffic,0.7859697674253642,0.4929708037017778,NO2
511,May park primary,Urban Background,0.7859563302464453,0.4928953347336478,NO2
512,Bannerman road,Urban Background,0.7859123450835289,0.4928716904806204,NO2
513,City academy,Urban Traffic,0.7858874561336255,0.4928808805371808,NO2
514,Summer hill a420,Urban Traffic,0.7858939007538739,0.49293941834676985,NO2
515,Summer hill Plummers hill,Urban Traffic,0.7858970906207077,0.49293863970780605,NO2
516,St patricks,Urban Traffic,0.7858738512668462,0.4929106305951138,NO2
517,Redfield educate together,Urban Traffic,0.7858773844670005,0.4929038922885748,NO2
518,Bristol futures academy,Urban Traffic,0.7858605865210478,0.4928867224288417,NO2
519,Barton Hill Academy,Urban Traffic,0.7858524315345843,0.4928750185121704,NO2
520,Easton c of e academy,Urban Background,0.7858931508493394,0.49285505559631354,NO2
521,St. Nicholas of tolentine,Urban Traffic,0.7858846833198148,0.492842314039585,NO2
522,Hannah more front,Urban Traffic,0.785854229115239,0.4928340701878366,NO2
523,Hillcrest primary,Urban Traffic,0.7857752417724986,0.49285846915406517,NO2
524,West town lane academy,Urban Traffic,0.7857130322229242,0.4929036092298461,NO2
525,St Mary redcliffe secondary,Urban Traffic,0.7858090144864944,0.49281345106170465,NO2
526,St Mary redcliffe primary,Urban Background,0.7857895250073847,0.4928077402621898,NO2
527,Dalby avenue,Urban Traffic,0.7857820947552902,0.492789243304343,NO2
528,Dalby avenue church lane,Urban Traffic,0.7857777159054524,0.492785994377405,NO2
529,Compass point,Urban Traffic,0.7857675372923034,0.4927628009252585,NO2
530,Holy cross primary,Urban Traffic,0.7857961806418258,0.49277939980655044,NO2
531,Southville primary,Urban Traffic,0.7857966323506962,0.4927650481784915,NO2
532,Southville primary Myrtle street,Urban Background,0.785782877273071,0.4927536681032172,NO2
533,Ashton gate primary,Urban Traffic,0.7857939791354385,0.492735769161185,NO2
534,Ashton park school,Urban Traffic,0.785779033123251,0.49269726275929215,NO2
535,HotWells primary,Urban Background,0.7858376593912857,0.492718766272711,NO2
536,St George's primary,Urban Background,0.7858408976201527,0.4927607993397988,NO2
537,St Michaels on the mount,Urban Background,0.7858680751482405,0.4927803695359806,NO2
538,Real sounds studios silver street,Urban Traffic,0.7858749008029291,0.49279819645763223,NO2
539,Cathedral School,Urban Traffic,0.785838654119525,0.4927757651657322,NO2
540,Cod Almighty downpipe,Urban Traffic,0.7861166346228373,0.49279906971234877,NO2
541,Bell Hill,Urban Traffic,0.7859998343038158,0.4928895487624439,NO2
542,Glenfrome Road lamppost by M32 Bridge,Urban Traffic,0.7859926140789247,0.49288671309702614,NO2
543,Nelson Street,Urban Traffic,0.785869012609291,0.4927939166951239,NO2
544,420 Hotwell Road A4,Urban Traffic,0.7858367547880366,0.4927088584201399,NO2
545,South Eastern stair access Plimsoll Bridge,Urban Traffic,0.7858225317934046,0.49271487161938393,NO2
546,Talbot Road 20mph lamppost,Urban Traffic,0.7857434657546596,0.4928889983315467,NO2
547,Coronation Road Walter Street No Entry,Urban Traffic,0.7858038978471443,0.4927336642070175,NO2
548,Except local buses sign Blackmoors Lane,Urban Traffic,0.7857862713922483,0.49270144958371814,NO2
549,Lamppost outside BRI CAZ,Urban Traffic,0.7858800421672277,0.4927879677399888,NO2
550,Lamppost opposite BRI CAZ,Urban Traffic,0.7858796519215406,0.4927888898705305,NO2
551,Lamp post near Queens Head pub South Bristol link,Urban Traffic,0.7856173427986163,0.492721578550784,NO2
552, Lamp post at junction with Highridge rd. near Cox brothers garage. South Bristol link.,Urban Traffic,0.7856232860525988,0.49270739802945057,NO2
553,Westbury on Trym High Street Lamp post by Athena restaurant,Urban Traffic,0.786079924057009,0.49272696200161487,NO2
554,A4018 Lamp post by layby before roundabout for Crow Ln/ Knole Ln,Urban Traffic,0.7861622636518716,0.49272856732809706,NO2
555,AQ Mesh Temple Way,Urban Traffic,0.7858774905953411,0.4928222486598233,PM10 PM2.5
556,Muller road/ Glenfrome road junction north,Urban Traffic,0.7859760680820814,0.49286985607688144,NO2
557,Traffic light on the corner of Shaldon road,Urban Traffic,0.7859975318707955,0.4928477221647851,NO2
558,Lampost on North corner of Draycott road junction with Muller road.,Urban Traffic,0.7860177338041079,0.49283467354779004,NO2
559,Muller road junction with Downend road lampost north of the junction.,Urban Traffic,0.7860303678636934,0.49283427342395647,NO2
560,Muller road junction with Downend road traffic light to the south of the junction.,Urban Traffic,0.7860289696646507,0.4928343222884374,NO2
561,St. Werburghs,Urban Background,0.7859685606723635,0.4928427449805417,NO2 PM10 PM2.5 CO O3 Temperature RH
562,Bristol Airport,Suburban Industrial,0.785482025502237,0.49248852515228086,NOX NO2 NO PM10
563,"Whiteladies road, on loading sign next to Redland library",Urban Traffic,0.7859190972702208,0.49274824344627455,NO2
564,Baldwin Street traffic light outside domino's,Urban Traffic,0.7858521770549001,0.49278894882054397,NO2
565,"Baldwin Street lamp post by cycle way, opp St Stephens St",Urban Traffic,0.7858518709175879,0.4927932283792195,NO2
566,High St lamp post outside Wards solicitors,Urban Traffic,0.7858572737897368,0.49279891018500654,NO2
567,Church Road-CAZ-Outside Gurdwara,Urban Traffic,0.7858869484739098,0.49291694909570033,NO2
568,Church Road-CAZ-Lamppost,Urban Traffic,0.7858886582270208,0.4929288938503019,NO2
569,Marlborough St-CAZ-Lamppost opposite hosp,Urban Traffic,0.7858845241357316,0.49279149698574726,NO2
570,Marlborough St-CAZ-Lamppost by coach station,Urban Traffic,0.7858868844447413,0.4927976390423181,NO2
571,Rupert St-CAZ-Post outside fire station,Urban Traffic,0.7858748399114119,0.49279711735828746,NO2
572,Rupert St-CAZ-Post outside police station,Urban Traffic,0.7858751802514996,0.49279619558451054,NO2
573,Rupert St-CAZ-Post outside Fusion Tower,Urban Traffic,0.7858719439369424,0.49279233842348796,NO2
574,Park St-CAZ-Lamppost by Guild,Urban Traffic,0.7858604169669383,0.492769185545557,NO2
575,Park St-CAZ-Lamppost by Agora,Urban Traffic,0.7858588197367566,0.49276931601952745,NO2
576,Baldwin St-CAZ-Lamppost by Yelland House,Urban Traffic,0.7858529739261557,0.49279362099321805,NO2
577,Baldwin St-CAZ-Drainpipe on building,Urban Traffic,0.7858515996108056,0.4927911113487818,NO2
578,Marlborough St-CAZ-On sign leg,Urban Traffic,0.7858884589912569,0.49279526979479216,NO2
579,Marlborough St-CAZ-Post by bollards,Urban Traffic,0.7858875854429257,0.4927928764642881,NO2
580,Marlborough St-CAZ-Post,Urban Traffic,0.785886892613186,0.49279352070668253,NO2
581,Upper Maudlin St-CAZ-Crossing by BRI,Urban Traffic,0.7858785423827682,0.4927878575665089,NO2
582,Upper Maudlin St-CAZ-Post by BRI,Urban Traffic,0.7858755740043722,0.4927857978774435,NO2
583,Lower Park Row-CAZ-Post by Art shop,Urban Traffic,0.7858697509753909,0.492783037246329,NO2
584,Lower Park Row-CAZ-Post after OTR,Urban Traffic,0.785867890481597,0.49278185000664887,NO2
585,Park Row-CAZ-Lamppost by museum,Urban Traffic,0.7858640118262978,0.49277871700974435,NO2
586,Park Row-CAZ-Post by house,Urban Traffic,0.7858642001556557,0.49277759635202256,NO2
587,Queens Road-CAZ-Lamppost by UoB,Urban Traffic,0.7858669565752106,0.49276390492676314,NO2
588,Park St-CAZ-Lamppost by bike stands,Urban Traffic,0.7858640399645831,0.4927668827716719,NO2
589,Park St-CAZ-Lamppost by City Hall,Urban Traffic,0.7858508796517553,0.49277444558601796,NO2
590,College Green-CAZ-Lamppost opp Denmark St,Urban Traffic,0.7858489803060659,0.4927840924684203,NO2
591,Anchor Road-CAZ-Lamppost,Urban Traffic,0.7858408496208074,0.4927803878874673,NO2
592,Lewins Mead-CAZ-Post by Evans Cycles,Urban Traffic,0.785874139389145,0.4927920842740353,NO2
593,Lewins Mead-CAZ-Post by PMT,Urban Traffic,0.7858752586491357,0.49279407606705233,NO2
594,Rupert St-CAZ-Post by Courtrooms,Urban Traffic,0.7858694739144024,0.4927901555526439,NO2
595,Victoria Street-CAZ-No entry sign,Urban Traffic,0.7858484586588362,0.4928065227781114,NO2
596,Counterslip-CAZ-Drainpipe on building,Urban Traffic,0.7858496313183266,0.4928088738676479,NO2
597,Temple Gate-CAZ-Lamppost,Urban Traffic,0.7858230095526239,0.49282423421775695,NO2
598,Bath Road-CAZ-Lamppost or sign,Urban Traffic,0.7858143884978187,0.4928313639194795,NO2
599,Wells Road-CAZ-Lamppost,Urban Traffic,0.7857861062798209,0.4928406155046016,NO2
600,Winterstoke Road-CAZ-Lamppost,Urban Traffic,0.7857461627407846,0.49273928417622737,NO2
601,Newfoundland St-CAZ-Lamppost by layby,Urban Traffic,0.785886155560328,0.49280955876311716,NO2
602,Newfoundland St-CAZ-Lamppost by crossing,Urban Traffic,0.7858860498902975,0.49281395759211255,NO2
603,Temple Way-CAZ-Sign by Champ Square,Urban Traffic,0.7858771385366665,0.492822011013704,NO2
604,Newfoundland Way-CAZ-Lamppost by petrol station,Urban Traffic,0.7858928804533218,0.4928276283130683,NO2
605,Newfoundland Way-CAZ-Road sign,Urban Traffic,0.7858943640075201,0.492831137487439,NO2
606,Houlton St-CAZ-30mph sign,Urban Traffic,0.7858878460233906,0.492828739868098,NO2
607,Cheltenham Rd-CAZ-Sign opp Tesco,Urban Traffic,0.7859175770584818,0.49280455785704286,NO2
608,Cheltenham Rd-CAZ-Lamppost by Bite,Urban Traffic,0.7859156921872302,0.49280588964536165,NO2
609,Lower Ashley Rd-CAZ-Lamppost by grass,Urban Traffic,0.7859234393086707,0.4928413901737858,NO2
610,Gloucester Rd-CAZ-Lamppost by bus stop,Urban Traffic,0.7860081547563109,0.4928107726162826,NO2
611,Bedminster Rd-CAZ-Lamppost opp school,Urban Traffic,0.7857380750897877,0.49276367368230434,NO2
612,Bedminster Rd-CAZ-Lamppost by school,Urban Traffic,0.7857378356832551,0.49276467426616893,NO2
613,Bedminster Rd-CAZ-Post opp Van Sales,Urban Traffic,0.7857328573021505,0.4927566754802972,NO2
614,Bedminster Rd-CAZ-Lamppost by Van Sales,Urban Traffic,0.7857335998970013,0.49275603118819944,NO2
615,Bedminster Rd-CAZ-Post,Urban Traffic,0.7857311294263307,0.4927490547770773,NO2
616,Parson St-CAZ-Lamppost by Station,Urban Traffic,0.7857407872349467,0.4927554638657908,NO2
617,Lower Ashley Rd-CAZ-Lamppost by Geo Jones,Urban Traffic,0.7859252944954155,0.49283701963241816,NO2
618,Lower Ashley Rd-CAZ-Lamppost opp London Rd,Urban Traffic,0.785925059340168,0.4928385007271578,NO2
619,Bedminster Down Rd-CAZ-Lamppost by billboard,Urban Traffic,0.7857282762345338,0.49274371931948174,NO2
620,Bedminster Down Rd-CAZ-Roadsign by Winterstoke,Urban Traffic,0.7857408455047936,0.4927514674716075,NO2
621,West St-CAZ-Lamppost by Argus Rd,Urban Traffic,0.7857611172330791,0.49276508089711984,NO2
622,West St-CAZ-Lamppost opp Jamiesons,Urban Traffic,0.7857729642474633,0.49277075830496353,NO2
623,Bedminster Parade-CAZ-Lamppost by William Hill,Urban Traffic,0.7857952683265561,0.4927927952025381,NO2
624,York Rd-CAZ-Sign after bridge,Urban Traffic,0.7858064425601341,0.4928060730127613,NO2
625,Bath Rd-CAZ-Lamppost by Bus Lane,Urban Traffic,0.7858005812831143,0.4928394451636544,NO2
626,Bath Rd-CAZ-Lamppost by Kings Road,Urban Traffic,0.7857786944203837,0.49289018086499276,NO2
627,A4044 Roundabout-CAZ-Lamppost,Urban Traffic,0.7858656423700477,0.4928213645878318,NO2
628,Victoria St-CAZ-Lamppost opp Mitchell Lane,Urban Traffic,0.7858400947476744,0.4928143317738644,NO2
629,Lamb Street-CAZ-One way sign by Church,Urban Traffic,0.7858745009358402,0.4928330625238231,NO2
630,Stokes Croft-CAZ-Lamppost,Urban Traffic,0.7859085969721039,0.49280573549640766,NO2
631,Ashley Road-CAZ-Lamppost opp Drumd Rd,Urban Traffic,0.7859160550698132,0.4928121654748979,NO2
632,Sussex Place-CAZ-Lamppost,Urban Traffic,0.7859285589110516,0.49283371981904883,NO2
633,Ashley Down Rd-CAZ-Lamppost,Urban Traffic,0.7859635181709536,0.4928278583703339,NO2
634,Gloucester Rd-CAZ-Lamppost opp Baths,Urban Traffic,0.7859711028184926,0.4928020917897574,NO2
635,Cheltenham Rd-CAZ-Post by Papa Johns,Urban Traffic,0.7859295449373029,0.492802441015866,NO2
636,Merchants Rd-CAZ-Lamppost by house,Urban Traffic,0.7858275027455376,0.49272671012396135,NO2
637,Wells Rd-CAZ-Lamppost by Red Lion Carpets,Urban Traffic,0.7857183885473982,0.4928785243175125,NO2
638,Bath Rd-CAZ-Lamppost,Urban Traffic,0.7857398651801437,0.49292570330971563,NO2
639,Wells Rd-CAZ-Lamppost,Urban Traffic,0.7857314923310205,0.49287496676611714,NO2
640,Church Rd-CAZ-Post by Barwaaqo Cafe,Urban Traffic,0.7859043903823877,0.49288607974861937,NO2
641,Whitehall Rd-CAZ-Lamppost by house,Urban Traffic,0.7858986934104427,0.49288584972200544,NO2
642,Stapleton Rd-CAZ-Lamppost by house,Urban Traffic,0.7859154955991637,0.49286171403148515,NO2
643,Mina Rd-CAZ-Lamppost by house,Urban Traffic,0.7859288123718469,0.4928493143324344,NO2
644,Muller Rd-CAZ-Lamppost opp LA DT,Urban Traffic,0.7859692147866939,0.49289497604777305,NO2
645,Stapleton Rd-CAZ-Lamppost,Urban Traffic,0.7859812712920591,0.49288634283379307,NO2
646,Fishponds Rd-CAZ-Lamppost,Urban Traffic,0.7859655397262273,0.4929078370235134,NO2
647,Fishponds Rd-CAZ-Lamppost,Urban Traffic,0.7859999146665135,0.492973588660819,NO2
648,Muller Rd-CAZ-Lamppost,Urban Traffic,0.7860434753580705,0.49283122977744226,NO2
649,Muller Rd-CAZ-Lamppost,Urban Traffic,0.7859744843346419,0.4928765853580601,NO2
650,Linden Rd-CAZ-Lamppost by house,Urban Traffic,0.7859892207362051,0.4927615344358031,NO2
651,Linden Rd-CAZ-Lamppost by house,Urban Traffic,0.7859938021948191,0.49275534396285775,NO2
652,Whiteladies Rd-CAZ-Lamppost after petrol station,Urban Traffic,0.7859455531872258,0.4927367882919623,NO2
653,Westbury Rd-CAZ-Lamppost by hospital,Urban Traffic,0.7859570711850498,0.49273475097036196,NO2
654,Upper Maudlin St-CAZ-Lamppost opp BRI,Urban Traffic,0.7858783478720642,0.4927883785980459,NO2
655,Upper Maudlin St-CAZ-Lamppost by BRI,Urban Traffic,0.785879385045457,0.4927872123630206,NO2
656,College Green-CAZ-Post by Toni&Guy,Urban Traffic,0.7858482179469068,0.49278281819573777,NO2
657,Clift House Road-CAZ-Telegraph pole clift house road,Urban Traffic,0.7858022806455099,0.49272716005467554,NO2
658,Temple Way Bridge-CAZ-Lamppost Temple Way Bridge,Urban Traffic,0.785846166233564,0.4928220083322893,NO2
659,Bristol Hill-CAZ-Lamppost Bristol Hill,Urban Traffic,0.7857439339419999,0.4929120924883675,NO2
660,North View Downs Park West,Urban Traffic,0.7859964959440845,0.4927358454844582,NO2
661,Marlborough Street,Urban Traffic,0.7858841139419871,0.49279046010370975,NOX NO2 NO
662,Marlborough Street - co - located,Urban Traffic,0.7858841139419871,0.49279046010370975,NO2
663,Troopers Hill Opposite No 30,Urban Background,0.7858705801045966,0.4929676228040046,NO2
664,Netham Lock Junction,Urban Background,0.7858456845545179,0.4929061225735642,NO2
665,Blackswarth Road Opposite St Patrick's School,Urban Background,0.7858738520187867,0.49291071055448205,NO2
666,Beaufort Road Opposite No 109,Urban Background,0.7858769377433813,0.49292552529100575,NO2
667,Victoria Avenue Opposite No 90,Urban Background,0.7858732803270609,0.4928925222455723,NO2
668,Avonvale Road Opposite Bristol Futures Academy,Urban Background,0.7858607870918248,0.49288680116391737,NO2
669,Morely Street/Bright Street Ped Crossing,Urban Background,0.7858686677952009,0.4928803160771517,NO2
670,Russel Town Avenue Opposite Pheonix Social Enterprise Club,Urban Background,0.7858860555790897,0.49288068921824124,NO2
671,Church Road Miss Millies,Urban Traffic,0.7858821521539754,0.49289566692580644,NO2
672,Victoria Parade Opposite No 39,Urban Background,0.7858900293406084,0.4928992975423388,NO2
673,Lyppiatt Road Opposite No 25,Urban Background,0.7858903342536223,0.4929051334175184,NO2
674,Stapleton Road HE,Urban Traffic,0.7859821711501733,0.49288641729787114,NO2
675,Glenfrome Road stonewall LP HE,Urban Traffic,0.7859926140789247,0.49288671309702614,NO2
676,B4058 East of M32 stonewall LP HE,Urban Traffic,0.7859998846347285,0.49288958845425995,NO2
677,Napier Road 20mph LP HE,Urban Traffic,0.7859517612020466,0.4928771656590121,NO2
678,505 Stapleton Road Easton LP HE,Urban Traffic,0.7859538436253789,0.49288075223092165,NO2
679,Stapleton Rd Freemantle rd LP HE,Urban Traffic,0.7859646859607266,0.49288624475749415,NO2
680,Stapleton Rd Heath St Cycles sign HE,Urban Traffic,0.7859615268898651,0.4928849843278616,NO2
681,New Gatton Rd barrier LP HE,Urban Traffic,0.7859335062191328,0.49285936251985907,NO2
682,Stairway bridge M32 J3 HE,Urban Traffic,0.7859306965436681,0.49285810037023,NO2
683,Fox Rd 26 LP HE,Urban Traffic,0.7859303311943066,0.49286162179958154,NO2
684,Lower Ashley Rd Millpond Sch LP HE,Urban Traffic,0.7859238688043345,0.4928597425144214,NO2
685,Mina Rd M32 AAPEX LP HE,Urban Traffic,0.7859279729915692,0.49285031934522144,NO2
686,Gable Rd M32 barrier LP HE,Urban Traffic,0.7859277010598308,0.4928531603287208,NO2
687,Portway - Sylvan Way,Roadside,0.7860356145552735,0.492625644689155,NO2
688,Portway - Roman Way,Roadside,0.7859946736163974,0.49264549756618764,NO2
689,Portway - Bridge Valley Road,Roadside,0.7858803156964769,0.49269484585259105,NO2
690,Blackboy Hill_Traffic light on pedestrian crossing,,0.7859392312871276,0.4927389104636117,NO2
691,Lamb Street_CAZ signpost by George Jones Park,,0.7858773644440445,0.49283468365231453,NO2
692,Sussex Place_No loading signpost,,0.7859273148593269,0.49283420757692387,NO2
693,Bedminster Down Rd junction with Winterstoke Close_CAZ,,0.7857403938745142,0.4927512706824787,NO2
694,A4044 Roundabout_Traffic Light,,0.7858653958032251,0.4928216859934003,NO2
695,Speedwell Road_near Wackum Inn,,0.7859209220520954,0.4929390180199381,NO2
696,Rodney Road junction with Whiteway Road,,0.7859182801815849,0.4929780209943958,NO2
697,Whiteway Road junction with A420,,0.7858974538237322,0.4929564706640355,NO2
698,Air Balloon Hill Primary School,,0.7858809478995542,0.4929706409854352,NO2
699,Nags Head Hill,,0.7858566348078164,0.4929833349407092,NO2
700,Barton Hill Academy,,0.7858559431705417,0.4928765560962702,NO2
